stop_id,stop_name,address,stop_lat,stop_lon
1000725668,Budapesti körút,"Fodorkert, Gedó, József Attila sugárút, Budapesti körút",46.273146,20.1601921
1000729605,Budapesti körút (József Attila sugárút),"Fodorkert, Gedó, Budapesti körút, Budapesti körút (József Attila sugárút)",46.2724499,20.1605921
1099501779,Galamb utca,"Belváros, Boldogasszony sugárút, Galamb utca",46.2416666,20.1424182
1099501784,Szeged vasútállomás,"Alsóváros, Indóház tér, Szeged vasútállomás",46.2399261,20.1426964
1103186207,Széchenyi tér,"Belváros, Széchenyi tér",46.2528081,20.14944
1103186211,Tavasz utca,"Rókus, Franciahögy lakópark, Kossuth Lajos sugárút, Tavasz utca",46.2607733,20.1389184
1103186215,Bécsi körút,"Belváros, Boldogasszony sugárút, Bécsi körút",46.2433639,20.1436692
1103186226,Tavasz utca,"Rókus, Franciahögy lakópark, Kossuth Lajos sugárút, Tavasz utca",46.2606065,20.1393021
1103186236,Anna-kút (Kossuth Lajos sugárút),"Belváros, Kossuth Lajos sugárút, Anna-kút (Kossuth Lajos sugárút)",46.2562989,20.1473722
1103186245,Pulz utca,"Rókus, Pulz utca",46.2643935,20.1261084
1103186251,Széchenyi tér,"Belváros, Széchenyi tér",46.2526484,20.1492275
1103186254,Aradi vértanúk tere,"Belváros, Aradi vértanúk tere",46.2477236,20.1469218
1103186257,Damjanich utca,"Rókus, Franciahögy lakópark, Kossuth Lajos sugárút, Damjanich utca",46.2628104,20.1350543
1103186258,Rókus vasútállomás,"Béketelep, Pulz utca, Rókus vasútállomás",46.2660658,20.1256873
1103186260,Bécsi körút,"Belváros, Boldogasszony sugárút, Bécsi körút",46.243613,20.1439083
1103186265,Anna-kút (Kossuth Lajos sugárút),"Belváros, Kossuth Lajos sugárút, Anna-kút (Kossuth Lajos sugárút)",46.2560375,20.147791
1103186269,Rókusi templom,"Rókus, Franciahögy lakópark, Kossuth Lajos sugárút, Rókusi templom",46.2591729,20.1419248
1103186283,Aradi vértanúk tere,"Belváros, Aradi vértanúk tere",46.2479389,20.1470324
1111400508,Vadaspark,"Iparváros, Kálvária sugárút, Vadaspark",46.2540169,20.1180038
1111400513,Londoni körút,"Móraváros, Kálvária sugárút, Londoni körút",46.2519899,20.1379723
1111400514,Brüsszeli körút,"Felsőváros, József Attila sugárút, Brüsszeli körút",46.2618632,20.1575707
1111400526,Budapesti körút,"Fodorkert, Gedó, Tölgyes utca, Budapesti körút",46.2728927,20.1593131
1111400531,Centrum Áruház,"Belváros, Tisza Lajos körút, Centrum Áruház",46.2544353,20.1463504
1111400538,Rózsa utca (József Attila sugárút),"Tarján, Gedó, Rózsa utca, Rózsa utca (József Attila sugárút)",46.2666484,20.157389
1111400548,Kecskeméti utca,"Tarján, Gedó, József Attila sugárút, Kecskeméti utca",46.2646165,20.1574877
1111400551,II. Kórház,"Móraváros, Kálvária sugárút, II. Kórház",46.2535585,20.1257442
1111400577,Budapesti körút,"Fodorkert, Gedó, József Attila sugárút, Budapesti körút",46.272407,20.1589378
1111400578,Brüsszeli körút,"Felsőváros, Brüsszeli körút",46.2616194,20.1575247
1111400588,Deák Ferenc Gimnázium,"Fodorkert, Gedó, József Attila sugárút, Deák Ferenc Gimnázium",46.2698289,20.1578568
1111400607,Kecskeméti utca,"Tarján, Gedó, József Attila sugárút, Kecskeméti utca",46.2639732,20.1574594
1111400613,Vadaspark,"Iparváros, Kálvária sugárút, Vadaspark",46.2540262,20.1169392
1111400621,Dugonics tér (Kálvária sugárút),"Belváros, Dugonics tér, Dugonics tér (Kálvária sugárút)",46.2510646,20.1438114
1111400623,Anna-kút (Tisza Lajos körút),"Belváros, Tisza Lajos körút, Anna-kút (Tisza Lajos körút)",46.2559698,20.1484226
1111400632,Dugonics tér (Petőfi Sándor sugárút),"Belváros, Tisza Lajos körút, Dugonics tér (Petőfi Sándor sugárút)",46.2504473,20.1445283
1111400633,Retek utca,"Tarján, Gedó, József Attila sugárút, Retek utca",46.2660598,20.1574913
1111400634,Centrum Áruház,"Belváros, Tisza Lajos körút, Centrum Áruház",46.2549039,20.1468902
1119053202,Vám tér,"Alsóváros, Vám tér",46.2432657,20.1309922
1257246827,Csatár utca,"Tápé, Honfoglalás utca, Csatár utca",46.2638108,20.2079924
1403707769,Belvárosi temető,"Iparváros, Fonógyári út, Belvárosi temető",46.2559493,20.1062431
1403707775,Belvárosi temető II. kapu,"Iparváros, Fonógyári út, Belvárosi temető II. kapu",46.258871,20.1067939
1403707791,Belvárosi temető II. kapu,"Iparváros, Fonógyári út, Belvárosi temető II. kapu",46.2591586,20.1069588
1403707793,Tisza Lajos körút (Károlyi utca),"Belváros, Tisza Lajos körút, Tisza Lajos körút (Károlyi utca)",46.2544731,20.1464261
1403707796,Tisza Lajos körút (Károlyi utca),"Belváros, Tisza Lajos körút, Tisza Lajos körút (Károlyi utca)",46.2548816,20.1468302
1403707798,Damjanich utca,"Rókus, Franciahögy lakópark, Kossuth Lajos sugárút, Damjanich utca",46.262628,20.1355097
1403707816,Fonógyári út,"Iparváros, Fonógyári út",46.2638594,20.109628
1403707820,Fonógyári út,"Iparváros, Fonógyári út",46.26496,20.1102521
1403707829,Kecskés,"Kecskés István-telep, Vadaspark lakópark, Szabadkai út, Kecskés",46.2394965,20.1176906
1403707830,Kecskés,"Kecskés István-telep, Vadaspark lakópark, Szabadkai út, Kecskés",46.2398135,20.1186498
1403707843,Kereskedő köz,"Iparváros, Fonógyári út, Kereskedő köz",46.2614552,20.1082606
1403707847,Kereskedő köz,"Iparváros, Fonógyári út, Kereskedő köz",46.2617137,20.1084088
1403707852,Kálvária tér,"Móraváros, Kálvária sugárút, Kálvária tér",46.2532883,20.129803
1403707856,Londoni körút,"Móraváros, Kálvária sugárút, Londoni körút",46.2519243,20.1383687
1403707868,Glattfelder Gyula tér,"Belváros, Tisza Lajos körút, Glattfelder Gyula tér",46.2565275,20.1560012
1403707871,Somogyi utca,"Belváros, Kelemen László utca, Somogyi utca",46.2503458,20.147672
1403707874,Somogyi utca,"Belváros, Kelemen László utca, Somogyi utca",46.2505444,20.1477443
1403707878,Szabadkai út,"Alsóváros, Szabadkai út",46.2423807,20.1268902
1403707882,Szabadkai út,"Alsóváros, Szabadkai út",46.2424561,20.1271291
1403707903,Szent György tér,"Belváros, József Attila sugárút, Szent György tér",46.258906,20.1567748
1403707906,Szent György tér,"Belváros, Franciahögy lakópark, Osztrovszky utca, Szent György tér",46.259085,20.1567868
1403707909,Szivárvány kitérő,"Móraváros, Petőfi Sándor sugárút, Szivárvány kitérő",46.2462092,20.1369885
1403707911,Tarján,"Tarján, Gedó, József Attila sugárút, Tarján",46.2755067,20.1647083
1403707920,Tarján,"Tarján, Gedó, József Attila sugárút, Tarján",46.2755398,20.1642951
1403707926,Veres ács utca,"Móraváros, Kálvária sugárút, Veres ács utca",46.2526767,20.1341274
1403707931,Veres ács utca,"Móraváros, Kálvária sugárút, Veres ács utca",46.2527657,20.1337405
1403707935,Vitéz utca,"Belváros, Ady tér, Vitéz utca",46.2484088,20.1410782
1403707945,Vitéz utca,"Móraváros, Petőfi Sándor sugárút, Vitéz utca",46.2485371,20.1413197
1403707953,Vásárhelyi Pál utca,"Rókus, Vásárhelyi Pál utca",46.2635935,20.1303224
1403708073,Bem utca,"Alsóváros, Bem utca",46.2400865,20.1411566
1403708120,Szalámigyár,"Alsóváros, Vadaspark lakópark, Szabadkai út, Szalámigyár",46.2412184,20.1230652
1403708386,Moszkvai körút,"Móraváros, Petőfi Sándor sugárút, Moszkvai körút",46.2464023,20.1373072
1403708781,II. Kórház,"Móraváros, Kálvária sugárút, II. Kórház",46.2535666,20.1251209
1403709765,Vásárhelyi Pál utca,"Rókus, Rókusi körút, Vásárhelyi Pál utca",46.2649309,20.1312446
1404296015,Szeged Plaza,"Béketelep, Pulz utca, Szeged Plaza",46.2664959,20.1267588
1409624814,Szalámigyár,"Alsóváros, Vadaspark lakópark, Szabadkai út, Szalámigyár",46.2409469,20.1222957
1409624818,Szalámigyár,"Alsóváros, Vadaspark lakópark, Szabadkai út, Szalámigyár",46.2411529,20.1229525
1418196705,Rókus vasútállomás,"Béketelep, Pulz utca, Rókus vasútállomás",46.2658517,20.1256411
1418196707,Vadaspark,"Iparváros, Kálvária sugárút, Vadaspark",46.2538903,20.1194974
1700400133,Diófa Vendéglő,"Északi városrész, Gedó, Csongrádi sugárút, Diófa Vendéglő",46.2690992,20.151108
1700400484,Diófa Vendéglő,"Északi városrész, Gedó, Csongrádi sugárút, Diófa Vendéglő",46.2686078,20.1510966
1704188810,Csillag tér (Budapesti körút),"Tarján, Gedó, Budapesti körút, Csillag tér (Budapesti körút)",46.2673908,20.1672305
1704188813,"Tarján, víztorony","Tarján, Gedó, Budapesti körút, víztorony, Tarján",46.2706905,20.164607
1704188829,Csillag tér (Lugas utca),"Felsőváros, Lugas utca, Csillag tér (Lugas utca)",46.2668242,20.1680181
1886954376,Európa liget,"Makkosház, Harmónia lakópark, Csongrádi sugárút, Európa liget",46.2736047,20.1470799
1886954381,Rókusi víztorony,"Újrókus, Harmónia lakópark, Rókusi körút, Rókusi víztorony",46.2691357,20.1358452
1886954382,Rókusi víztorony,"Újrókus, Harmónia lakópark, Rókusi körút, Rókusi víztorony",46.2692938,20.1362417
1886954384,Szatymazi utca,"Újrókus, Harmónia lakópark, Rókusi körút, Szatymazi utca",46.2673539,20.1332911
1886954386,Vértó,"Északi városrész, Harmónia lakópark, Rókusi körút, Vértó",46.2722086,20.1431759
1886954398,Vértó,"Északi városrész, Harmónia lakópark, Rókusi körút, Vértó",46.2722103,20.1434465
1907916563,Rókus II. sz. általános iskola,"Újrókus, Harmónia lakópark, Rókusi körút, Rókus II. sz. általános iskola",46.2707549,20.1391236
1907916566,Rókus II. sz. általános iskola,"Újrókus, Harmónia lakópark, Rókusi körút, Rókus II. sz. általános iskola",46.2708994,20.1395597
1907917121,Szatymazi utca,"Újrókus, Rókusi körút, Szatymazi utca",46.2666211,20.1325035
2148353705,Kamaratöltés,"Újszőreg, Kállayliget, Makai út, Kamaratöltés",46.2305442,20.175761
2148353741,Kamaratöltés,"Újszőreg, Kállayliget, Szőregi út, Kamaratöltés",46.2309316,20.1747505
2148354140,Aranyosi utca,"Újszeged, Hársfa lakópark, Szőregi út, Aranyosi utca",46.2359735,20.1710564
2148354148,Aranyosi utca,"Újszeged, Hársfa lakópark, Szőregi út, Aranyosi utca",46.2363552,20.170864
2191489137,Belvárosi temető,"Iparváros, Fonógyári út, Belvárosi temető",46.2552831,20.1063848
2196056143,Közép fasor,"Újszeged, Fő fasor, Közép fasor",46.2466863,20.1670413
2196056144,Fő fasor,"Újszeged, Fő fasor",46.2470157,20.1662606
2196056145,Napfényfürdő,"Odessza, Népkert sor, Napfényfürdő",46.2496813,20.1595901
2196056146,Sportcsarnok (Székely sor),"Odessza, Székely sor, Sportcsarnok (Székely sor)",46.2452702,20.1630731
2196056148,Temesvári körút (Népkert sor),"Odessza, Népkert sor, Temesvári körút (Népkert sor)",46.2500293,20.1660773
2196056149,Torontál tér (P+R),"Odessza, Székely sor, Torontál tér (P+R)",46.2477827,20.1592293
2196056159,Torontál tér (P+R),"Odessza, Torontál tér, Torontál tér (P+R)",46.2489397,20.1585262
2196056160,Torontál tér (P+R),"Odessza, Torontál tér, Torontál tér (P+R)",46.2489358,20.1585706
2295508437,Makkosház,"Makkosház, Ipoly sor, Makkosház",46.27648,20.1469945
2295509593,Gát utca,"Makkosház, Gedó, Hont Ferenc utca, Gát utca",46.2751601,20.150843
2401194618,Harcos utca,"Szentmihály, Bodom, Harcos utca",46.2122601,20.0692563
2401194680,Vértói út,"Újrókus, Vértói út",46.2742105,20.1414316
2428628113,Cinke utca,"Marostő, Hársfa lakópark, Fő fasor, Cinke utca",46.2393074,20.188757
2428628119,Cinke utca,"Marostő, Hársfa lakópark, Fő fasor, Cinke utca",46.2397143,20.187981
2428628122,Klára utca,"Cserőke, Hársfa lakópark, Katalin utca, Klára utca",46.2339112,20.1863573
2428628126,Klára utca,"Cserőke, Hársfa lakópark, Katalin utca, Klára utca",46.2340373,20.1858871
2428628128,Közép fasor (Bérkert utca),"Újszeged, Bérkert utca, Közép fasor (Bérkert utca)",46.2489385,20.1708667
2428628129,Közép fasor (Bérkert utca),"Újszeged, Bérkert utca, Közép fasor (Bérkert utca)",46.2490122,20.1702538
2428628132,Marostői utca,"Újszeged, Bérkert utca, Marostői utca",46.247718,20.1749222
2428628136,Marostői utca,"Újszeged, Bérkert utca, Marostői utca",46.2480494,20.1738958
2428628140,Napfényfürdő,"Odessza, Körsétaút, Napfényfürdő",46.249672,20.1606068
2428628144,Pipiske utca,"Marostő, Hársfa lakópark, Fülemüle utca, Pipiske utca",46.2374841,20.1876752
2428628147,Pipiske utca,"Marostő, Hársfa lakópark, Fülemüle utca, Pipiske utca",46.2379139,20.1882025
2428628150,Szöri utca,"Újszeged, Bérkert utca, Szöri utca",46.2471838,20.1786844
2428628153,Szöri utca,"Újszeged, Bérkert utca, Szöri utca",46.2471933,20.1780009
2428628156,Szövetség utca,"Újszeged, Bérkert utca, Szövetség utca",46.2459892,20.183985
2428628159,Szövetség utca,"Újszeged, Bérkert utca, Szövetség utca",46.2464792,20.1827947
2428628166,Tanács utca,"Marostő, Hársfa lakópark, Tanács utca",46.2442453,20.1867807
2428628171,Tanács utca,"Marostő, Bérkert utca, Tanács utca",46.2449103,20.1864977
2428628175,Temesvári körút (Népkert sor),"Odessza, Népkert sor, Temesvári körút (Népkert sor)",46.2499128,20.1657526
2428628178,Thököly utca,"Marostő, Hársfa lakópark, Fő fasor, Thököly utca",46.2410648,20.1846177
2428628182,Thököly utca,"Marostő, Hársfa lakópark, Tanács utca, Thököly utca",46.2415447,20.1844548
2428628185,Katalin utca,"Cserőke, Katalin utca",46.2322129,20.1903663
2429103530,Akácfa utca,"Odessza, Lövölde út, Akácfa utca",46.2345762,20.1514017
2429103531,Akácfa utca,"Odessza, Lövölde út, Akácfa utca",46.2346711,20.1514064
2429103532,Alsó kikötő sor,"Odessza, Alsó kikötő sor",46.241719,20.1542281
2429103533,Alsó kikötő sor,"Odessza, Alsó kikötő sor",46.2417814,20.1541005
2429103534,Barázda utca,"Újszőreg, Makai út, Barázda utca",46.2235518,20.1926518
2429103535,Barázda utca,"Újszőreg, Makai út, Barázda utca",46.2239955,20.1920358
2429103536,Csanádi utca,"Odessza, Csanádi utca",46.2449162,20.159759
2429103537,Csanádi utca,"Odessza, Csanádi utca",46.2455354,20.1592304
2429103538,Derkovits fasor,"Marostő, Hársfa lakópark, Derkovits fasor",46.2358378,20.176922
2429103539,Derkovits fasor,"Marostő, Hársfa lakópark, Derkovits fasor",46.2359155,20.1766332
2429103540,Diófa utca (Derkovits fasor),"Újszeged, Hársfa lakópark, Derkovits fasor, Diófa utca (Derkovits fasor)",46.2394113,20.1730882
2429103541,Diófa utca (Derkovits fasor),"Újszeged, Hársfa lakópark, Derkovits fasor, Diófa utca (Derkovits fasor)",46.2395741,20.1727094
2429103542,Diófa utca (Szőregi út),"Odessza, Kállayliget, Szőregi út, Diófa utca (Szőregi út)",46.2388878,20.1674284
2429103543,Diófa utca (Szőregi út),"Odessza, Kállayliget, Szőregi út, Diófa utca (Szőregi út)",46.2393311,20.1671115
2429103545,Erdélyi tér,"Marostő, Hársfa lakópark, Thököly utca, Erdélyi tér",46.2380142,20.1796986
2429103547,Füvészkert,"Lövölde út, Füvészkert",46.2329245,20.1557259
2429103548,Füvészkert,"Odessza, Lövölde út, Füvészkert",46.2329356,20.1554577
2429103549,Fő fasor (Temesvári körút),"Odessza, Temesvári körút, Fő fasor (Temesvári körút)",46.2467993,20.164913
2429103552,Fő fasor (Temesvári körút),"Odessza, Temesvári körút, Fő fasor (Temesvári körút)",46.2475211,20.1657069
2429103553,Gabonakutató,"Odessza, Vedres utca, Gabonakutató",46.2446519,20.1572319
2429103554,Gabonakutató,"Odessza, Vedres utca, Gabonakutató",46.2450111,20.1571637
2429103555,Gyermekkórház,"Odessza, 43303, Gyermekkórház",46.2434135,20.1612397
2429103556,Gyár utca (Magyar utca),"Szőreg, Magyar utca, Gyár utca (Magyar utca)",46.2058099,20.1885922
2429103557,Gyár utca (Magyar utca),"Szőreg, Magyar utca, Gyár utca (Magyar utca)",46.2058622,20.188714
2429103558,Gyár utca (Szerb utca),"Szőreg, Szerb utca, Gyár utca (Szerb utca)",46.2059048,20.1947382
2429103559,Gyár utca (Szerb utca),"Szőreg, Szerb utca, Gyár utca (Szerb utca)",46.2063377,20.1949618
2429103560,Gőzmalom utca,"Szőreg, Gőzmalom utca",46.2029515,20.1914631
2429103561,Gőzmalom utca,"Szőreg, Gőzmalom utca",46.203053,20.1912755
2429103562,Hargitai utca,"Marostő, Hársfa lakópark, Hargitai utca",46.2361462,20.1854033
2429103563,Hargitai utca,"Marostő, Hársfa lakópark, Hargitai utca",46.2363965,20.1850972
2429103564,Hatházak,"Odessza, Alsó kikötő sor, Hatházak",46.2379891,20.1523603
2429103565,Hatházak,"Odessza, Alsó kikötő sor, Hatházak",46.2380392,20.1522689
2429103566,Iskola utca,"Szőreg, Magyar utca, Iskola utca",46.2164364,20.1919114
2429103567,Iskola utca,"Szőreg, Magyar utca, Iskola utca",46.2166729,20.1923339
2429103568,Kavics utca,"Újszőreg, Kállayliget, Makai út, Kavics utca",46.2285662,20.1803015
2429103569,Kavics utca,"Újszőreg, Kállayliget, Makai út, Kavics utca",46.2290143,20.1795871
2429103570,Kisstadion,"Odessza, Derkovits fasor, Kisstadion",46.2444834,20.1651801
2429103571,Kossuth Lajos Általános Iskola,"Szőreg, Szerb utca, Kossuth Lajos Általános Iskola",46.2171518,20.1970936
2429103572,Kossuth Lajos Általános Iskola,"Szőreg, Szerb utca, Kossuth Lajos Általános Iskola",46.2175029,20.1973698
2429103574,Közép fasor,"Újszeged, Fő fasor, Közép fasor",46.246428,20.1683594
2429103575,Napfény köz,"Újszőreg, Kállayliget, Makai út, Napfény köz",46.2261568,20.1862258
2429103576,Napfény köz,"Újszőreg, Kállayliget, Makai út, Napfény köz",46.2265236,20.1857083
2429103577,Pinty utca,"Marostő, Hársfa lakópark, Hargitai utca, Pinty utca",46.2369381,20.1835598
2429103578,Pinty utca,"Marostő, Hársfa lakópark, Hargitai utca, Pinty utca",46.2374163,20.1826902
2429103579,Radnóti utca,"Marostő, Hársfa lakópark, Fő fasor, Radnóti utca",46.2430103,20.1794835
2429103580,Rózsatő utca (Magyar utca),"Szőreg, Magyar utca, Rózsatő utca (Magyar utca)",46.2102013,20.1889103
2429103581,Rózsatő utca (Magyar utca),"Szőreg, Magyar utca, Rózsatő utca (Magyar utca)",46.2104387,20.1887947
2429103582,Rózsatő utca (Szerb utca),"Szőreg, Szerb utca, Rózsatő utca (Szerb utca)",46.210263,20.1950955
2429103583,Rózsatő utca (Szerb utca),"Szőreg, Szerb utca, Rózsatő utca (Szerb utca)",46.2104397,20.1953305
2429103584,Sportcsarnok (Temesvári körút),"Odessza, Temesvári körút, Sportcsarnok (Temesvári körút)",46.2441134,20.1632015
2429103585,Sportcsarnok (Temesvári körút),"Odessza, Temesvári körút, Sportcsarnok (Temesvári körút)",46.2441319,20.1627902
2429103586,Szent-Györgyi Albert utca,"Újszeged, Temesvári körút, Szent-Györgyi Albert utca",46.2505707,20.1667836
2429103587,Szent-Györgyi Albert utca,"Újszeged, Temesvári körút, Szent-Györgyi Albert utca",46.2506802,20.1671001
2429103588,"Szőreg, ABC","Marostői kiskertek, Hősök tere, ABC, Szőreg",46.2211076,20.1968058
2429103589,"Szőreg, ABC","Marostői kiskertek, Hősök tere, ABC, Szőreg",46.2212168,20.1969188
2429103590,"Szőreg, malom","Szőreg, Szerb utca, malom, Szőreg",46.2021769,20.1943741
2429103591,Szőregi szabadidőpark,"Szőreg, Szerb utca, Szőregi szabadidőpark",46.2137746,20.1960364
2429103592,Szőregi szabadidőpark,"Szőreg, Szerb utca, Szőregi szabadidőpark",46.2138694,20.1962555
2429103593,Thököly utca,"Marostő, Hársfa lakópark, Fő fasor, Thököly utca",46.241408,20.1838351
2429103594,Radnóti utca,"Marostő, Hársfa lakópark, Fő fasor, Radnóti utca",46.2421168,20.1823759
2429103596,Torontál tér (P+R),"Odessza, Vedres utca, Torontál tér (P+R)",46.2476455,20.1581503
2429103597,Traktor utca,"Marostő, Hársfa lakópark, Thököly utca, Traktor utca",46.2330977,20.175253
2429103598,Traktor utca,"Marostő, Hársfa lakópark, Thököly utca, Traktor utca",46.2331118,20.1754719
2429103599,Töltés utca,"Újszeged, Hársfa lakópark, Derkovits fasor, Töltés utca",46.2425735,20.1694885
2429103600,Töltés utca,"Újszeged, Derkovits fasor, Töltés utca",46.2431475,20.168809
2429103601,Vaspálya utca,"Szőreg, Magyar utca, Vaspálya utca",46.2135334,20.1894765
2429103602,Vaspálya utca,"Szőreg, Magyar utca, Vaspálya utca",46.2136867,20.1896642
2429103617,"Újszeged, víztorony","Újszeged, Fő fasor, víztorony, Újszeged",46.2447737,20.1735907
2429103618,"Újszeged, víztorony","Újszeged, Fő fasor, víztorony, Újszeged",46.244995,20.1732929
2429618639,Agyagos utca,"Fodorkert, Gedó, Makkosházi körút, Agyagos utca",46.2725493,20.1558251
2429618643,Agyagos utca,"Makkosház, Gedó, Makkosházi körút, Agyagos utca",46.2726275,20.1520096
2429618647,Alkony utca,"Móraváros, Katona József utca, Alkony utca",46.2523203,20.1315591
2429618651,Alkony utca,"Móraváros, Katona József utca, Alkony utca",46.2525856,20.1315982
2429618658,Anna-kút (Kálvin tér),"Belváros, Kálvin tér, Anna-kút (Kálvin tér)",46.256369,20.1491631
2429618663,Aradi vértanúk tere,"Belváros, Tisza Lajos körút, Aradi vértanúk tere",46.2471087,20.1470705
2429618667,Bakay Nándor utca (Vásárhelyi Pál utca),"Móraváros, Bakay Nándor utca, Bakay Nándor utca (Vásárhelyi Pál utca)",46.2589611,20.1277901
2429618670,Bakay Nándor utca (Vásárhelyi Pál utca),"Móraváros, Bakay Nándor utca, Bakay Nándor utca (Vásárhelyi Pál utca)",46.2599146,20.1257155
2429618674,Bakay Nándor utca,"Iparváros, Bakay Nándor utca",46.2606257,20.1235523
2429618678,Bakay Nándor utca,"Iparváros, Bakay Nándor utca",46.260865,20.1231427
2429618681,Bartók tér,"Belváros, Attila utca, Bartók tér",46.2545542,20.1439253
2429618684,Berlini körút,"Belváros, Franciahögy lakópark, Berlini körút",46.2614062,20.1496028
2429618688,Berlini körút,"Belváros, Franciahögy lakópark, Brüsszeli körút, Berlini körút",46.2614512,20.1520823
2429618692,Budapesti körút (József Attila sugárút),"Fodorkert, Gedó, Budapesti körút, Budapesti körút (József Attila sugárút)",46.2722935,20.1603072
2429618695,Budapesti körút,"Fodorkert, Gedó, József Attila sugárút, Budapesti körút",46.2719895,20.1587645
2429618699,Bécsi körút,"Alsóváros, Szentháromság utca, Bécsi körút",46.2438334,20.1402718
2429618703,Bécsi körút,"Alsóváros, Szentháromság utca, Bécsi körút",46.2440447,20.1403537
2429618706,Centrum Áruház,"Belváros, Mikszáth Kálmán utca, Centrum Áruház",46.2545993,20.1456548
2429618709,Csaba utca,"Felsőváros, Kereszttöltés utca, Csaba utca",46.2636026,20.1696536
2429618713,Csaba utca,"Felsőváros, Kereszttöltés utca, Csaba utca",46.2642349,20.1692499
2429618716,Csemegi-tó,"Rókus, Vásárhelyi Pál utca, Csemegi-tó",46.2603865,20.1279115
2429618719,Csemegi-tó,"Rókus, Vásárhelyi Pál utca, Csemegi-tó",46.260471,20.1282258
2429618723,Cserepes sor,"Alsóváros, Vadaspark lakópark, Cserepes sor",46.2448883,20.1264693
2429618730,Csillag tér (Budapesti körút),"Tarján, Gedó, Budapesti körút, Csillag tér (Budapesti körút)",46.2671145,20.16711
2429618732,Csillag tér (Lugas utca),"Felsőváros, Lugas utca, Csillag tér (Lugas utca)",46.2667539,20.1684404
2429618735,Csonka utca,"Alsóváros, Csonka utca",46.2327783,20.1353527
2429618738,Csonka utca,"Alsóváros, Csonka utca",46.2327947,20.1355482
2429618741,Dankó Pista utca,"Felsőváros, József Attila sugárút, Dankó Pista utca",46.2619398,20.1578886
2429618745,Deák Ferenc Gimnázium,"Fodorkert, Gedó, József Attila sugárút, Deák Ferenc Gimnázium",46.269218,20.1576739
2429618748,Deák Ferenc Gimnázium,"Fodorkert, Gedó, József Attila sugárút, Deák Ferenc Gimnázium",46.2697029,20.1580562
2429618752,Dobó utca,"Alsóváros, Földmíves utca, Dobó utca",46.2391766,20.1346395
2429618755,Dobó utca,"Alsóváros, Földmíves utca, Dobó utca",46.2393195,20.1346736
2429618756,Dugonics tér (Dáni utca),"Belváros, Kálvária sugárút, Dugonics tér (Dáni utca)",46.2510874,20.1433242
2429618757,Dugonics tér (Dáni utca),"Belváros, Kálvária sugárút, Dugonics tér (Dáni utca)",46.2512273,20.1432458
2429618759,Dugonics tér (Petőfi Sándor sugárút),"Belváros, Tisza Lajos körút, Dugonics tér (Petőfi Sándor sugárút)",46.2498612,20.144779
2429618760,Dugonics tér (Tisza Lajos körút),"Belváros, Tisza Lajos körút, Dugonics tér (Tisza Lajos körút)",46.2514245,20.1446102
2429618764,Dózsa utca,"Belváros, Dózsa utca",46.2547758,20.1529893
2429618767,Dózsa utca,"Belváros, Dózsa utca",46.2552726,20.1535353
2429618776,Erdő utca,"Felsőváros, Etelka sor, Erdő utca",46.2608727,20.1713218
2429618779,Erdő utca,"Felsőváros, Etelka sor, Erdő utca",46.2612208,20.1715936
2429618782,Etelka sor,"Felsőváros, Tömörkény-üdülőtelep, Felső Tisza part, Etelka sor",46.258298,20.171778
2429618786,Etelka sor,"Felsőváros, Felső Tisza part, Etelka sor",46.2585492,20.1705172
2429618789,Etelka sor,"Felsőváros, Etelka sor",46.2589778,20.1713858
2429618792,Fecske utca,"Felsőváros, Szilléri sugárút, Fecske utca",46.2635417,20.1641767
2429618795,Fecske utca,"Felsőváros, Gedó, Szilléri sugárút, Fecske utca",46.2643466,20.1652058
2429618798,Földhivatal,"Móraváros, Kálvária sugárút, Földhivatal",46.2522539,20.1360309
2429618802,Földváry utca,"Belváros, Petőfi Sándor sugárút, Földváry utca",46.2494397,20.1429934
2429618805,Gál utca,"Felsőváros, Római körút, Gál utca",46.2609613,20.1588421
2429618808,Gém utca,"Északi városrész, Franciahögy lakópark, Csongrádi sugárút, Gém utca",46.2632783,20.1511501
2429618811,Gólya utca,"Alsóváros, Gólya utca",46.2443156,20.1293062
2429618814,Hajnal utca,"Móraváros, Katona József utca, Hajnal utca",46.249988,20.1301926
2429618818,Hajnal utca,"Móraváros, Katona József utca, Hajnal utca",46.2505553,20.1306387
2429618821,Hajós utca,"Felsőváros, Hajós utca",46.2596166,20.1651799
2429618824,Hajós utca,"Felsőváros, Hajós utca",46.2600905,20.1648992
2429618827,Honvéd tér (Tisza Lajos körút),"Belváros, Tisza Lajos körút, Honvéd tér (Tisza Lajos körút)",46.2488378,20.1449018
2429618831,Honvéd tér,"Belváros, Földváry utca, Honvéd tér",46.2486469,20.1445609
2429618844,Huszár utca,"Móraváros, Bakay Nándor utca, Huszár utca",46.2563709,20.1349552
2429618847,Huszár utca,"Móraváros, Bakay Nándor utca, Huszár utca",46.2565134,20.1343267
2429618850,Háló utca,"Felsőváros, Felső Tisza part, Háló utca",46.2569641,20.1615502
2429618853,Háló utca,"Felsőváros, Felső Tisza part, Háló utca",46.257265,20.162932
2429618856,Hétvezér utca,"Rókus, Franciahögy lakópark, Párizsi körút, Hétvezér utca",46.2592264,20.144569
2429618860,Hétvezér utca,"Rókus, Franciahögy lakópark, Párizsi körút, Hétvezér utca",46.2592225,20.1440113
2429618863,II. Kórház,"Móraváros, Kálvária sugárút, II. Kórház",46.2533908,20.1263279
2429618870,Glattfelder Gyula tér,"Belváros, Tisza Lajos körút, Glattfelder Gyula tér",46.2558353,20.156231
2429618874,Glattfelder Gyula tér,"Belváros, Tisza Lajos körút, Glattfelder Gyula tér",46.2559733,20.1562992
2429618877,József Attila sugárút (Retek utca),"Tarján, Gedó, Retek utca, József Attila sugárút (Retek utca)",46.2667145,20.1592095
2429618880,József Attila sugárút (Retek utca),"Tarján, Gedó, Retek utca, József Attila sugárút (Retek utca)",46.2668896,20.1583438
2429618883,Kenyérgyári út,"Móraváros, Vásárhelyi Pál utca, Kenyérgyári út",46.2556295,20.1241056
2429618885,Kisteleki utca,"Újrókus, Rókusi körút, Kisteleki utca",46.2659553,20.13167
2429618890,Kisteleki utca,"Újrókus, Rókusi körút, Kisteleki utca",46.2660675,20.1322198
2429618892,Klinikák,"Belváros, Tisza Lajos körút, Déli Klinikai Tömb",46.2457092,20.147302
2429618895,Kolozsvári tér,"Móraváros, Gólya utca, Kolozsvári tér",46.2464555,20.1316723
2429618898,Kálvária sugárút (Vásárhelyi Pál utca),"Móraváros, Vásárhelyi Pál utca, Kálvária sugárút (Vásárhelyi Pál utca)",46.2543275,20.1240039
2429618901,Kálvária sugárút,"Móraváros, Moszkvai körút, Kálvária sugárút",46.2510903,20.1383191
2429618905,Kálvária sugárút,"Móraváros, Londoni körút, Kálvária sugárút",46.2526507,20.1390742
2429618908,Kálvária tér,"Móraváros, Kálvária sugárút, Kálvária tér",46.2531103,20.130126
2429618911,Kálvária tér,"Móraváros, Kálvária sugárút, Kálvária tér",46.2532241,20.1299738
2429618914,Körtöltés utca,"Újrókus, Harmónia lakópark, Körtöltés utca",46.2696023,20.1350245
2429618917,Körtöltés utca,"Újrókus, Harmónia lakópark, Körtöltés utca",46.2697842,20.1346363
2429618921,Lengyel utca,"Belváros, József Attila sugárút, Lengyel utca",46.2605055,20.1573663
2429618924,Londoni körút (Bakay Nándor utca),"Móraváros, Bakay Nándor utca, Londoni körút (Bakay Nándor utca)",46.2548175,20.1388176
2429618928,Londoni körút (Bakay Nándor utca),"Móraváros, Bakay Nándor utca, Londoni körút (Bakay Nándor utca)",46.2550146,20.1385153
2429618931,Londoni körút (Kálvária sugárút),"Belváros, Kálvária sugárút, Londoni körút (Kálvária sugárút)",46.2517317,20.1392936
2429618937,Lugas utca,"Felsőváros, Gyík utca, Lugas utca",46.2670062,20.1708172
2429618940,Makkosházi körút (Csongrádi sugárút),"Makkosház, Gedó, Csongrádi sugárút, Makkosházi körút (Csongrádi sugárút)",46.2715174,20.1489558
2429618943,Makkosházi körút (Csongrádi sugárút),"Makkosház, Harmónia lakópark, Csongrádi sugárút, Makkosházi körút (Csongrádi sugárút)",46.2731388,20.1479178
2429618946,Makkosházi körút (Rókusi körút),"Északi városrész, Harmónia lakópark, Rókusi körút, Makkosházi körút (Rókusi körút)",46.2724301,20.1471681
2429618951,Makkosházi körút,"Makkosház, Gedó, Makkosházi körút",46.2722823,20.1501396
2429618954,Mars tér (Mikszáth Kálmán utca),"Belváros, Mikszáth Kálmán utca, Mars tér (Mikszáth Kálmán utca)",46.2557509,20.142854
2429618957,Mars tér (Mikszáth Kálmán utca),"Belváros, Mikszáth Kálmán utca, Mars tér (Mikszáth Kálmán utca)",46.2561233,20.1419831
2429618960,Mars tér (Szent Rókus tér),"Rókus, Franciahögy lakópark, Szent Rókus tér, Mars tér (Szent Rókus tér)",46.2589641,20.1408326
2429618962,Mars tér (Szent Rókus tér),"Rókus, Franciahögy lakópark, Szent Rókus tér, Mars tér (Szent Rókus tér)",46.2591025,20.1409566
2429618963,Mars tér (Szent Rókus tér),"Rókus, Franciahögy lakópark, Szent Rókus tér, Mars tér (Szent Rókus tér)",46.2592304,20.1410894
2429618964,Mars tér (autóbusz-állomás),"Belváros, Mars tér, Mars tér (autóbusz-állomás)",46.2568566,20.1413349
2429618966,Mars tér (autóbusz-állomás),"Belváros, Mars tér, Mars tér (autóbusz-állomás)",46.2569352,20.1417761
2429618970,Mars tér (Attila utca),"Belváros, Mars tér, Mars tér (Attila utca)",46.2561386,20.1407081
2429618973,Mars tér (üzletsor),"Rókus, Mars tér, Mars tér (üzletsor)",46.25775,20.1410546
2429618976,Mars tér (üzletsor),"Rókus, Mars tér, Mars tér (üzletsor)",46.2579124,20.1406563
2429618979,Mars tér (üzletsor),"Rókus, Mars tér, Mars tér (üzletsor)",46.2580704,20.1402908
2429618982,Moszkvai körút,"Móraváros, Petőfi Sándor sugárút, Moszkvai körút",46.2465332,20.1371289
2429618986,Mura utca,"Móraváros, Bakay Nándor utca, Mura utca",46.2578157,20.1308658
2429618993,Mura utca,"Móraváros, Bakay Nándor utca, Mura utca",46.2578407,20.1310243
2429619001,Múzeum,"Belváros, Stefánia, Múzeum",46.25268,20.1515855
2429619004,Ortutay utca,"Makkosház, Gedó, Ortutay utca",46.2731081,20.1516558
2429619007,Ortutay utca,"Makkosház, Gedó, Ortutay utca",46.273535,20.1514591
2429619010,Petőfi Sándor sugárút,"Móraváros, Bécsi körút, Petőfi Sándor sugárút",46.2464288,20.1389335
2429619014,Petőfi Sándor sugárút,"Móraváros, Bécsi körút, Petőfi Sándor sugárút",46.2465353,20.1385781
2429619017,Retek utca,"Tarján, Gedó, József Attila sugárút, Retek utca",46.2672265,20.1576764
2429619020,Rákóczi utca (Vám tér),"Alsóváros, Rákóczi utca, Rákóczi utca (Vám tér)",46.2436593,20.1332289
2429619023,Rákóczi utca (Vám tér),"Alsóváros, Petőfi Sándor sugárút, Rákóczi utca (Vám tér)",46.243751,20.1320824
2429619026,Rákóczi utca (Vám tér),"Alsóváros, Petőfi Sándor sugárút, Rákóczi utca (Vám tér)",46.2442026,20.1327186
2429619029,"Szeged-Rókus vasútállomás, bejárati út","Újrókus, Kossuth Lajos sugárút, bejárati út, Szeged-Rókus vasútállomás",46.2652462,20.1276609
2429619032,"Szeged-Rókus vasútállomás, bejárati út","Újrókus, Kossuth Lajos sugárút, bejárati út, Szeged-Rókus vasútállomás",46.2654899,20.1274303
2429619035,Rókusi II. sz. általános iskola,"Újrókus, Harmónia lakópark, Rókusi körút, Rókusi II. sz. általános iskola",46.2706675,20.1397054
2429619038,Rókusi II. sz. általános iskola,"Újrókus, Harmónia lakópark, Rókusi körút, Rókusi II. sz. általános iskola",46.2707993,20.1394327
2429619041,Rókusi víztorony,"Újrókus, Harmónia lakópark, Rókusi körút, Rókusi víztorony",46.2686161,20.1346687
2429619044,Rókusi víztorony,"Újrókus, Harmónia lakópark, Rókusi körút, Rókusi víztorony",46.2692129,20.1364022
2429619048,Római körút (Szilléri sugárút),"Felsőváros, Római körút, Római körút (Szilléri sugárút)",46.2607243,20.1605361
2429619051,Római körút (Szilléri sugárút),"Felsőváros, Szilléri sugárút, Római körút (Szilléri sugárút)",46.2612192,20.1623266
2429619054,Rózsa utca (Csongrádi sugárút),"Északi városrész, Franciahögy lakópark, Csongrádi sugárút, Rózsa utca (Csongrádi sugárút)",46.2659037,20.1511769
2429619057,Rózsa utca (Csongrádi sugárút),"Északi városrész, Gedó, Rózsa utca, Rózsa utca (Csongrádi sugárút)",46.2663578,20.1519849
2429619060,Rózsa utca (Csongrádi sugárút),"Északi városrész, Gedó, Csongrádi sugárút, Rózsa utca (Csongrádi sugárút)",46.2668933,20.1514952
2429619064,Ságvári Gimnázium - SZTK,"Belváros, Szentháromság utca, Ságvári Gimnázium - SZTK",46.2474356,20.1454864
2429619067,Ságvári Gimnázium - SZTK,"Belváros, Szentháromság utca, Ságvári Gimnázium - SZTK",46.2474419,20.1451811
2429619070,Sajka utca,"Felsőváros, Római körút, Sajka utca",46.2598996,20.1621691
2429619073,Szabad sajtó utca,"Alsóváros, Hattyas utca, Szabad sajtó utca",46.2363186,20.1383875
2429619076,Szabad sajtó utca,"Alsóváros, Hattyas utca, Szabad sajtó utca",46.2364333,20.1386412
2429619080,Szabadkai út,"Alsóváros, Vadaspark lakópark, Szabadkai út",46.2424549,20.1264511
2429619084,Szabadság tér,"Alsóváros, Szabadság tér",46.2340529,20.1321291
2429619087,Szabadság tér,"Alsóváros, Szabadság tér",46.2340822,20.1322773
2429619090,Szalámigyár,"Alsóváros, Vadaspark lakópark, Szabadkai út, Szalámigyár",46.2410384,20.1219478
2429619094,Szamos utca,"Tarján, Gedó, Retek utca, Szamos utca",46.2665745,20.1618001
2429619097,Szamos utca,"Tarján, Gedó, Retek utca, Szamos utca",46.2667064,20.1616646
2429619100,Szeged vasútállomás,"Alsóváros, Indóház tér, Szeged vasútállomás",46.2399548,20.1426072
2429619104,Szeged vasútállomás,"Alsóváros, Indóház tér, Szeged vasútállomás",46.2406207,20.1429842
2429619107,Szent Ferenc utca,"Alsóváros, Rákóczi utca, Szent Ferenc utca",46.2421293,20.1374082
2429619111,Szent Ferenc utca,"Alsóváros, Szentháromság utca, Szent Ferenc utca",46.2421626,20.1381585
2429619114,Szent Ferenc utca,"Alsóváros, Rákóczi utca, Szent Ferenc utca",46.2422387,20.1368059
2429619117,Szent Ferenc utca,"Alsóváros, Szentháromság utca, Szent Ferenc utca",46.2424841,20.1387326
2429619120,Szent István tér,"Belváros, Szent István tér",46.2582492,20.1507282
2429619123,Szent István tér,"Belváros, Szent István tér",46.2584064,20.1510475
2429619126,Széchenyi tér,"Belváros, Híd utca, Széchenyi tér",46.2524136,20.149453
2429619129,Széchenyi tér,"Belváros, Széchenyi tér",46.2525799,20.1487048
2429619132,Széchenyi tér,"Belváros, Széchenyi tér",46.2527965,20.1485325
2429619134,Széchenyi tér,"Belváros, Széchenyi tér",46.2528936,20.1479406
2429619137,Szél utca,"Móraváros, Katona József utca, Szél utca",46.2476001,20.1287719
2429619138,Szél utca,"Móraváros, Katona József utca, Szél utca",46.2482129,20.1293605
2429619139,Sándor utca,"Felsőváros, Brüsszeli körút, Sándor utca",46.2615856,20.1567675
2429619141,Sárkány utca,"Alsóváros, Sárkány utca",46.2365134,20.1310942
2429619143,Sárkány utca,"Alsóváros, Sárkány utca",46.2367482,20.1315686
2429619146,Tabán utca (Felső Tisza-part),"Felsőváros, Felső Tisza part, Tabán utca (Felső Tisza-part)",46.2585259,20.1666189
2429619149,Tabán utca (Felső Tisza-part),"Felsőváros, Tömörkény-üdülőtelep, Felső Tisza part, Tabán utca (Felső Tisza-part)",46.2585794,20.1683426
2429619152,"Tarján, Víztorony tér","Tarján, Gedó, Víztorony tér, Víztorony tér, Tarján",46.2702012,20.1640766
2429619154,"Tarján, Víztorony tér","Tarján, Gedó, Víztorony tér, Víztorony tér, Tarján",46.2707291,20.1637525
2429619158,"Tarján, víztorony","Tarján, Gedó, Budapesti körút, víztorony, Tarján",46.2710326,20.1644755
2429619161,Volánbusz Zrt.,"Móraváros, Vásárhelyi Pál utca, Volánbusz Zrt.",46.2574187,20.1258144
2429619165,Volánbusz Zrt.,"Móraváros, Vásárhelyi Pál utca, Volánbusz Zrt.",46.2578648,20.125958
2429619168,Tündér utca,"Északi városrész, Franciahögy lakópark, Csongrádi sugárút, Tündér utca",46.2630477,20.150898
2429619171,Vadkerti tér,"Alsóváros, Vadkerti tér",46.2349918,20.1259478
2429619175,Vadkerti tér,"Alsóváros, Sárkány utca, Vadkerti tér",46.2351288,20.1266804
2429619178,"Vadkerti tér, buszforduló","Alsóváros, Tompai kapu út, buszforduló, Vadkerti tér",46.2344273,20.124623
2429619181,Vásárhelyi Pál utca (Pulcz utca),"Rókus, Vásárhelyi Pál utca, Vásárhelyi Pál utca (Pulcz utca)",46.2636121,20.1301073
2429619184,Vásárhelyi Pál utca (Pulcz utca),"Rókus, Vásárhelyi Pál utca, Vásárhelyi Pál utca (Pulcz utca)",46.2636591,20.1305978
2429619187,Vásárhelyi Pál utca,"Rókus, Harmónia lakópark, Kossuth Lajos sugárút, Vásárhelyi Pál utca",46.2637694,20.132363
2429619191,Vértó,"Északi városrész, Harmónia lakópark, Rókusi körút, Vértó",46.2720497,20.1445897
2429619194,Vértó,"Északi városrész, Harmónia lakópark, Rókusi körút, Vértó",46.2720995,20.1430739
2429619197,Vértói út,"Újrókus, Vértói út",46.2744201,20.1414711
2429619200,Vértói út,"Újrókus, Vértói út",46.2744903,20.1415262
2430584836,Acél utca,"Újpetőfitelep, Nagyszilléri domb, Végvári utca, Acél utca",46.2777434,20.170923
2430584837,Acél utca,"Újpetőfitelep, Nagyszilléri domb, Hangos utca, Acél utca",46.2783512,20.1707674
2430584838,Alkotmány utca,"Újpetőfitelep, Ladvánszky utca, Alkotmány utca",46.2808115,20.167963
2430584839,Apály utca,"Gyálarét, Gyálaréti út, Apály utca",46.21093,20.1080073
2430584840,Apály utca,"Gyálarét, Gyálaréti út, Apály utca",46.2110445,20.1081566
2430584841,Artézi kút,"Szentmihály, Bodom, Kapisztrán út, Artézi kút",46.2234343,20.0851846
2430584842,Artézi kút,"Szentmihály, Bodom, Kapisztrán út, Artézi kút",46.2236148,20.0852592
2430584843,Auchan áruház,"Iparváros, Zápor út, Auchan parkoló",46.274346,20.1031146
2430584844,Back Bernát utca 2.,"Szegedi Ipari Logisztikai Központ, Back Bernát utca, Back Bernát utca 2.",46.2833828,20.0881365
2430584845,Back Bernát utca 2.,"Szegedi Ipari Logisztikai Központ, Back Bernát utca, Back Bernát utca 2.",46.2837772,20.0879632
2430584846,Bajai út,"Iparváros, Bajai út",46.2546204,20.1105887
2430584847,Bajai út,"Iparváros, Bajai út",46.2550464,20.1078103
2430584848,Balatoni utca,"Újpetőfitelep, Délceg utca, Balatoni utca",46.2813149,20.1708406
2430584849,Balatoni utca,"Újpetőfitelep, Délceg utca, Balatoni utca",46.281435,20.170775
2430584850,Basahíd utca,"Kiskundorozsma, Széchenyi István utca, Basahíd utca",46.2703468,20.0605434
2430584851,Basahíd utca,"Kiskundorozsma, Széchenyi István utca, Basahíd utca",46.2703983,20.0604548
2430584852,Belvárosi temető,"Iparváros, Fonógyári út, Belvárosi temető",46.255431,20.1061666
2430584853,Belvárosi temető,"Iparváros, Fonógyári út, Belvárosi temető",46.256299,20.1062306
2430584854,Beszterce utca,"Tápé, Tömörkény-üdülőtelep, Budai Nagy Antal utca, Beszterce utca",46.2579219,20.1886688
2430584855,Beszterce utca,"Tápé, Tömörkény-üdülőtelep, Budai Nagy Antal utca, Beszterce utca",46.2582812,20.1879619
2430584856,Bognár utca,"Baktó, Alkotmány utca, Bognár utca",46.2882619,20.1640199
2430584857,Bognár utca,"Baktó, Alkotmány utca, Bognár utca",46.2886699,20.1637581
2430584858,"Béketelep, MEDIKÉMIA","Béketelep, Zsámbokréti sor, MEDIKÉMIA, Béketelep",46.278622,20.1303528
2430584859,Béketelepi Általános Iskola,"Béketelep, Napos út, Béketelepi Általános Iskola",46.2726217,20.1227962
2430584860,Béketelepi Általános Iskola,"Béketelep, Napos út, Béketelepi Általános Iskola",46.2727949,20.1230281
2430584861,Cincér utca,"Tompasziget, Gyálai út, Cincér utca",46.2254288,20.110352
2430584862,Cincér utca,"Tompasziget, Gyálai út, Cincér utca",46.2257329,20.1111555
2430584863,Csallóközi utca,"Béketelep, Liliom lakókert, Csallóközi utca",46.2813875,20.1249766
2430584864,Csap utca,"Petőfitelep, Nagyszilléri domb, Csap utca",46.26867,20.1769891
2430584865,Csatorna,"Kiskundorozsma, Dorozsmai út, Csatorna",46.2732995,20.077329
2430584867,Csatorna,"Kiskundorozsma, Dorozsmai út, Csatorna",46.2735013,20.07673
2430584869,Cserje sor,"Béketelep, Napos út, Cserje sor",46.2685584,20.121827
2430584872,Cserje sor,"Béketelep, Napos út, Cserje sor",46.2686984,20.1217426
2430584875,"Subasa, Csipkebogyó utca","Subasa, Széksósi út, Csipkebogyó utca, Subasa",46.2758837,20.0357295
2430584878,"Subasa, Csipkebogyó utca","Subasa, Széksósi út, Csipkebogyó utca, Subasa",46.2760126,20.034886
2430584884,Deli Károly utca,"Gyálarét, Gyálaréti út, Deli Károly utca",46.2089308,20.1073012
2430584888,Deli Károly utca,"Gyálarét, Gyálaréti út, Deli Károly utca",46.2089386,20.1074205
2430584891,Diadal utca,"Újpetőfitelep, Nagyszilléri domb, Algyői út, Diadal utca",46.2803468,20.1683351
2430584892,Dráva utca,"Tápé, Tömörkény-üdülőtelep, Bencfahát utca, Dráva utca",46.2623542,20.1893199
2430584893,Dráva utca,"Tápé, Tömörkény-üdülőtelep, Bencfahát utca, Dráva utca",46.2632177,20.1882777
2430584894,Duna utca,"Petőfitelep, Tömörkény-üdülőtelep, Irinyi János utca, Duna utca",46.2589068,20.1811498
2430584895,Duna utca,"Petőfitelep, Tömörkény-üdülőtelep, Irinyi János utca, Duna utca",46.2590249,20.1811937
2430584896,Délceg utca,"Újpetőfitelep, Délceg utca",46.2840458,20.1740328
2430584897,Első Szegedi Ipari Park,"Iparváros, Tűzoltó utca, Első Szegedi Ipari Park",46.2681199,20.1180157
2430584898,Erdőstarcsa utca,"Kiskundorozsma, Czékus utca, Erdőstarcsa utca",46.2827024,20.0673846
2430584899,Erdőstarcsa utca,"Kiskundorozsma, Czékus utca, Erdőstarcsa utca",46.2827786,20.0677496
2430584900,Fehérparti lejáró,"Kecskés István-telep, Terehalmi út, Fehérparti lejáró",46.2308014,20.0938383
2430584901,Fehérparti lejáró,"Kecskés István-telep, Terehalmi út, Fehérparti lejáró",46.230976,20.0941806
2430584902,Fehértói halgazdaság,"Nádvágó út, Fehértói halgazdaság",46.3026413,20.0731307
2430584903,Fonógyári út,"Iparváros, Dorozsmai út, Fonógyári út",46.2660382,20.1121908
2430584904,Fonógyári út,"Iparváros, Dorozsmai út, Fonógyári út",46.2661032,20.1129613
2430584905,Fonógyári úti iparváros,"Iparváros, Fonógyári út, Fonógyári úti iparváros",46.2631758,20.1091931
2430584906,Fonógyári úti iparváros,"Iparváros, Fonógyári út, Fonógyári úti iparváros",46.2637805,20.1094153
2430584907,Gumigyár (Budapesti út),"Budapesti út, Gumigyár (Budapesti út)",46.2786325,20.0965165
2430584908,Gumigyár (Budapesti út),"Budapesti út, Gumigyár (Budapesti út)",46.279109,20.0957654
2430584909,"Gumigyár, buszforduló","Budapesti út, buszforduló, Gumigyár",46.2786668,20.0951975
2430584910,Gyálarét,"Gyálarét, Gyálaréti kiskertek, Koszorú utca, Gyálarét",46.2055858,20.1095973
2430584911,Gyümölcs utca,"Baktó, Alkotmány utca, Gyümölcs utca",46.2811194,20.1664842
2430584912,Gyümölcs utca,"Baktó, Alkotmány utca, Gyümölcs utca",46.2812607,20.1663417
2430584913,Gábor Áron utca,"Petőfitelep, Nagyszilléri domb, Csap utca, Gábor Áron utca",46.2681378,20.1774057
2430584914,Gábor Áron utca,"Petőfitelep, Nagyszilléri domb, Gábor Áron utca",46.2683485,20.1767212
2430584915,Gárdonyi Géza utca,"Szentmihály, Bodom, Kapisztrán út, Gárdonyi Géza utca",46.2209909,20.0816597
2430584916,Gárdonyi Géza utca,"Szentmihály, Bodom, Kapisztrán út, Gárdonyi Géza utca",46.2212177,20.082136
2430584917,Gát utca,"Makkosház, Gedó, Ortutay utca, Gát utca",46.2752722,20.15122
2430584918,Holt-Tisza,"Klebelsbergtelep, Vaskapu utca, Holt-Tisza",46.2265551,20.1130717
2430584919,Holt-Tisza,"Klebelsbergtelep, Vaskapu utca, Holt-Tisza",46.2265558,20.1126584
2430584920,Honfoglalás utca,"Tápé, Honfoglalás utca",46.2604746,20.2046668
2430584921,Honfoglalás utca,"Tápé, Honfoglalás utca",46.2604869,20.2048702
2430584922,Huszka Jenő utca,"Kiskundorozsma, Dobos utca, Huszka Jenő utca",46.2658279,20.0685235
2430584923,Huszka Jenő utca,"Kiskundorozsma, Dobos utca, Huszka Jenő utca",46.2658934,20.06934
2430584924,Ikarusz köz,"Iparváros, Fonógyári út, Ikarusz köz",46.2603694,20.1075891
2430584925,Ikarusz köz,"Iparváros, Fonógyári út, Ikarusz köz",46.2608988,20.1077558
2430584926,Ipoly sor,"Makkosház, Harmónia lakópark, Csongrádi sugárút, Ipoly sor",46.2750255,20.1460265
2430584927,Ipoly sor,"Makkosház, Csongrádi sugárút, Ipoly sor",46.2762346,20.1453779
2430584928,Jerney János Általános Iskola,"Kiskundorozsma, Jerney utca, Jerney János Általános Iskola",46.2691452,20.0715489
2430584929,Jerney János Általános Iskola,"Kiskundorozsma, Jerney utca, Jerney János Általános Iskola",46.2698158,20.0716804
2430584930,Kalász utca,"Újpetőfitelep, Nagyszilléri domb, Bánk bán utca, Kalász utca",46.275072,20.1722682
2430584931,Kalász utca,"Újpetőfitelep, Nagyszilléri domb, Bánk bán utca, Kalász utca",46.2754209,20.1722122
2430584932,Kamarási utca,"Klebelsbergtelep, Ballagitó, Pancsovai utca, Kamarási utca",46.2306545,20.1176467
2430584933,Kamarási utca,"Klebelsbergtelep, Ballagitó, Pancsovai utca, Kamarási utca",46.2313039,20.1184086
2430584934,"Kecskéstelep, Bódi Vera utca","Kecskés István-telep, Terehalmi út, Bódi Vera utca, Kecskéstelep",46.2358059,20.1061787
2430584935,"Kecskéstelep, Bódi Vera utca","Kecskés István-telep, Vadaspark lakópark, Szabadkai út, Bódi Vera utca, Kecskéstelep",46.2360995,20.1065909
2430584936,"Kecskéstelep, Gera Sándor utca","Kecskés István-telep, Vadaspark lakópark, Szabadkai út, Gera Sándor utca, Kecskéstelep",46.2378199,20.1122634
2430584937,"Kecskéstelep, Gera Sándor utca","Kecskés István-telep, Vadaspark lakópark, Szabadkai út, Gera Sándor utca, Kecskéstelep",46.2381715,20.112855
2430584938,Kereskedelmi raktárak,"Iparváros, Kereskedő köz, Kereskedelmi raktárak",46.2613673,20.1110311
2430584939,Kereskedelmi raktárak,"Iparváros, Kereskedő köz, Kereskedelmi raktárak",46.2617146,20.1101092
2430584941,Kereskedő köz (EXPO),"Iparváros, Kereskedő köz, Kereskedő köz (EXPO)",46.2605402,20.1145612
2430584942,Kiskertek,"Tompasziget, Gyálai út, Kiskertek",46.2195937,20.1111066
2430584943,Kiskertek,"Tompasziget, Gyálai út, Kiskertek",46.2195937,20.1112309
2430584944,"Kiskundorozsma, vásártér","Kiskundorozsma, Kettőshatári út, vásártér, Kiskundorozsma",46.2820924,20.0633065
2430584945,"Kiskundorozsma, vásártér","Kiskundorozsma, Kettőshatári út, vásártér, Kiskundorozsma",46.282133,20.063726
2430584946,Kokárda utca,"Baktó, Alkotmány utca, Kokárda utca",46.2838013,20.1654795
2430584947,Kokárda utca,"Baktó, Alkotmány utca, Kokárda utca",46.2840321,20.1655243
2430584948,Koppány köz,"Szentmihály, Bodom, Kapisztrán út, Koppány köz",46.2162545,20.0752003
2430584949,Koppány köz,"Szentmihály, Bodom, Kapisztrán út, Koppány köz",46.2164896,20.0754171
2430584950,Koszorú utca,"Gyálarét, Gyálaréti kiskertek, Koszorú utca",46.2057427,20.1067837
2430584951,Koszorú utca,"Gyálarét, Gyálaréti kiskertek, Gyálaréti út, Koszorú utca",46.2063449,20.1065113
2430584952,Kísérleti gazdaság,"Budapesti út, Kísérleti gazdaság",46.2912415,20.0847984
2430584954,Lidicei tér,"Tarján, Nagyszilléri domb, Lidicei tér",46.2714228,20.1722045
2430584955,Lidicei tér,"Petőfitelep, Nagyszilléri domb, Gyémánt utca, Lidicei tér",46.2717051,20.1729809
2430584956,Makkosház,"Makkosház, Ipoly sor, Makkosház",46.2763905,20.1468485
2430584957,Malom (Jerney utca),"Kiskundorozsma, Jerney utca, Malom (Jerney utca)",46.2730092,20.0715795
2430584958,Nagyszombati utca (páratlan oldal),"Béketelep, Liliom lakókert, Régi posta út, Nagyszombati utca (páratlan oldal)",46.2752266,20.1194625
2430584959,Nagyszombati utca (páros oldal),"Béketelep, Liliom lakókert, Régi posta út, Nagyszombati utca (páros oldal)",46.2758229,20.1182698
2430584960,Napos út (Dorozsmai út),"Béketelep, Napos út, Napos út (Dorozsmai út)",46.2655152,20.1210068
2430584961,Negyvennyolcas utca,"Kiskundorozsma, Negyvennyolcas utca",46.2792553,20.0638275
2430584962,Negyvennyolcas utca,"Kiskundorozsma, Negyvennyolcas utca",46.279681,20.0641092
2430584965,"Petőfitelep, Fő tér","Petőfitelep, Szántó Kovács János utca, Fő tér, Petőfitelep",46.2630403,20.18033
2430584966,"Petőfitelep, Fő tér","Petőfitelep, Fő tér, Fő tér, Petőfitelep",46.2632342,20.1803873
2430584967,"Petőfitelep, Fő tér","Petőfitelep, Fő tér, Fő tér, Petőfitelep",46.2633189,20.1807982
2430584968,Rendező tér,"Klebelsbergtelep, Rendező tér",46.2276815,20.1162694
2430584969,Rendező tér,"Klebelsbergtelep, Rendező tér",46.2284303,20.1160705
2430584970,Rengey utca,"Béketelep, Liliom lakókert, Nagyszombati utca, Rengey utca",46.2775086,20.1212101
2430584971,Rengey utca,"Béketelep, Liliom lakókert, Csallóközi utca, Rengey utca",46.2780989,20.1203383
2430584972,Repülőtér bejárati út,"Iparváros, Bajai út, Repülőtér bejárati út",46.2539203,20.1017946
2430584973,Repülőtér bejárati út,"Iparváros, Bajai út, Repülőtér bejárati út",46.2538775,20.1019027
2430584974,Repülőtér,"Iparváros, Bajai út, Repülőtér",46.2509944,20.1022141
2430584975,Rév utca,"Tápé, Budai Nagy Antal utca, Rév utca",46.2579813,20.1996214
2430584976,Rév utca,"Tápé, Honfoglalás utca, Rév utca",46.2583096,20.2014801
2430584977,Back Bernát utca 6.,"Szegedi Ipari Logisztikai Központ, Back Bernát utca, Back Bernát utca 6.",46.2863497,20.0857179
2430584978,Szent János tér,"Kiskundorozsma, Szent János tér",46.2742933,20.0625711
2430584979,Szent János tér,"Kiskundorozsma, Széchenyi István utca, Szent János tér",46.2745154,20.0619596
2430584980,"Szentmihály, malom","Szentmihály, Bodom, Kapisztrán út, malom, Szentmihály",46.2188619,20.0787945
2430584981,"Szentmihály, malom","Szentmihály, Bodom, Kapisztrán út, malom, Szentmihály",46.2191802,20.0790795
2430584982,Sziksósfürdő,"Sziksós, Turista utca, Sziksósfürdő",46.2733568,20.0238029
2430584983,Sziksósfürdő,"Sziksós, Turista utca, Sziksósfürdő",46.2737737,20.0238986
2430584984,Széchenyi István utca,"Kiskundorozsma, Kút utca, Széchenyi István utca",46.2657738,20.0630185
2430584985,Széchenyi István utca,"Kiskundorozsma, Kút utca, Széchenyi István utca",46.2658672,20.0627946
2430584987,Szélső sor,"Újpetőfitelep, Nagyszilléri domb, Algyői út, Szélső sor",46.2783391,20.1674475
2430584990,Szélső sor,"Tarján, Nagyszilléri domb, Algyői út, Szélső sor",46.2783747,20.1672547
2430584993,Szúnyog utca,"Tompasziget, Gyálai út, Szúnyog utca",46.2226825,20.1095906
2430584996,Szúnyog utca,"Tompasziget, Gyálai út, Szúnyog utca",46.2232937,20.1091388
2430584999,Tassi ház,"Iparváros, Dorozsmai út, Tassi ház",46.2717315,20.0847352
2430585002,Tassi ház,"Iparváros, Dorozsmai út, Tassi ház",46.2721751,20.0837519
2430585005,"Tápé, általános iskola","Tápé, Árvácska utca, általános iskola, Tápé",46.2594838,20.1937958
2430585007,"Tápé, általános iskola","Tápé, Tömörkény-üdülőtelep, Kölcsey tér, általános iskola, Tápé",46.2599142,20.1933563
2430585010,Tücsök utca,"Tompasziget, Gyálai út, Tücsök utca",46.2177523,20.1105531
2430585013,Tücsök utca,"Tompasziget, Gyálai út, Tücsök utca",46.2181915,20.1105892
2430585016,Tűzoltó utca,"Iparváros, Tűzoltó utca",46.2663975,20.1175537
2430585019,Vadaspark,"Iparváros, Kálvária sugárút, Vadaspark",46.2538542,20.1177841
2430585022,Vadaspark,"Iparváros, Kálvária sugárút, Vadaspark",46.2540254,20.116546
2430585025,Verbéna utca,"Szentmihály, Kapisztrán út, Verbéna utca",46.226295,20.0889617
2430585028,Verbéna utca,"Kecskés István-telep, Terehalmi út, Verbéna utca",46.2266788,20.0895779
2430585031,Városi stadion,"Felsőváros, Tömörkény-üdülőtelep, Felső Tisza part, Városi stadion",46.257961,20.1757031
2430585034,Városi stadion,"Felsőváros, Tömörkény-üdülőtelep, Felső Tisza part, Városi stadion",46.2581104,20.1757003
2430585037,Völgyérhát utca,"Baktó, Völgyérhát utca",46.2904741,20.1607209
2430585038,Zsámbokréti sor,"Béketelep, Liliom lakókert, Zsámbokréti sor",46.2809662,20.1264597
2430585039,Zágráb utca,"Petőfitelep, Szántó Kovács János utca, Zágráb utca",46.2641251,20.1849352
2430585040,Zágráb utca,"Tápé, Tömörkény-üdülőtelep, Bencfahát utca, Zágráb utca",46.2641418,20.1858964
2430585041,Zápor út,"Iparváros, Budapesti út, Zápor út",46.2718759,20.10202
2430585042,Zápor út,"Iparváros, Budapesti út, Zápor út",46.2730223,20.1017577
2430585087,Árok utca,"Tápé, Budai Nagy Antal utca, Árok utca",46.2560419,20.1937573
2430585088,Árok utca,"Tápé, Budai Nagy Antal utca, Árok utca",46.2563206,20.1933168
2430585089,Öthalmi diáklakások,"Budapesti út, Öthalmi diáklakások",46.2755597,20.0990158
2431596045,Attila utca (Mars tér),"Belváros, Attila utca, Attila utca (Mars tér)",46.255575,20.1413588
2431596048,Lugas utca,"Felsőváros, Gyík utca, Lugas utca",46.266663,20.1707611
2431596050,Vám tér,"Alsóváros, Vám tér",46.2433708,20.1313399
2494467733,Budapesti út (Dorozsmai út),"Iparváros, Budapesti út, Budapesti út (Dorozsmai út)",46.2684846,20.1035417
2494467734,Budapesti út (Dorozsmai út),"Iparváros, Budapesti út, Budapesti út (Dorozsmai út)",46.2692201,20.103528
2630284945,Csongrádi sugárút (Bercsényi utca),"Belváros, Franciahögy lakópark, Csongrádi sugárút, Csongrádi sugárút (Bercsényi utca)",46.2607739,20.1506938
2630284948,"Tarján, Víztorony tér","Tarján, Gedó, Víztorony tér, Víztorony tér, Tarján",46.2704981,20.1639338
2685860192,Brassói utca,"Kiskundorozsma, Széksósi út, Brassói utca",46.2758906,20.0586543
2685860193,Brassói utca,"Kiskundorozsma, Széksósi út, Brassói utca",46.2761434,20.0582108
2957552265,Nyilassy utca,"Tápé, Árvácska utca, Nyilassy utca",46.2572088,20.1966899
2957552266,Nyilassy utca,"Tápé, Árvácska utca, Nyilassy utca",46.257358,20.196639
30766172,Dugonics tér (Tisza Lajos körút),"Belváros, Tisza Lajos körút, Dugonics tér (Tisza Lajos körút)",46.2518099,20.1448987
3219187884,Balajthy utca,"Kiskundorozsma, Negyvennyolcas utca, Balajthy utca",46.2770109,20.0633815
3219187885,Balajthy utca,"Kiskundorozsma, Negyvennyolcas utca, Balajthy utca",46.2778079,20.0636855
3786985473,Czékus utca,"Kiskundorozsma, Czékus utca",46.2827053,20.0718714
3792822340,Krematórium,"Iparváros, Bajai út, Krematórium",46.2545825,20.098669
3792822341,"Tarján, Víztorony tér","Tarján, Gedó, Víztorony tér, Víztorony tér, Tarján",46.2702902,20.1642335
3904711432,Öthalmi diáklakások,"Budapesti út, Öthalmi diáklakások",46.2758515,20.0991987
3967294563,Sportcsarnok (Székely sor),"Odessza, Székely sor, Sportcsarnok (Székely sor)",46.2454348,20.1630937
410221061,Anna-kút (Tisza Lajos körút),"Belváros, Tisza Lajos körút, Anna-kút (Tisza Lajos körút)",46.2560916,20.1489194
412764848,Londoni körút (Kálvária sugárút),"Móraváros, Kálvária sugárút, Londoni körút (Kálvária sugárút)",46.2521438,20.137614
4195324803,Széchenyi tér (Horváth Mihály utca),"Belváros, Vörösmarty utca, Széchenyi tér (Horváth Mihály utca)",46.2551738,20.1496011
4195324804,Torontál tér (P+R),"Odessza, Vedres utca, Torontál tér (P+R)",46.2478518,20.1583924
4221261142,"Újszeged, víztorony","Újszeged, Töltés utca, víztorony, Újszeged",46.2451479,20.1732471
4238299925,Vadaspark (Textilgyári út),"Iparváros, Textilgyári út, Vadaspark (Textilgyári út)",46.2545184,20.1186905
4315733589,Kecskés,"Klebelsbergtelep, Vadaspark lakópark, Horgosi utca, Kecskés",46.2395112,20.1198871
4372068244,Kenyérgyári út 5.,"Móraváros, Kenyérgyári út, Kenyérgyári út 5.",46.2560783,20.1219152
4462021011,Cserepes sor (Katona József utca),"Móraváros, Vadaspark lakópark, Katona József utca, Cserepes sor (Katona József utca)",46.2446262,20.1257844
4589272146,Bartók tér,"Belváros, Bartók tér",46.2552206,20.1431584
4942249835,ELI lézeres kutatóközpont,"Wolfgang Sandner utca, ELI lézeres kutatóközpont",46.2781856,20.1025466
5622260757,Szegedi Olimpiai Központ,"Szentmihály, Szabadkai út, Szegedi Olimpiai Központ",46.2331235,20.0724453
5657206940,Hódmezővásárhelyi Népkert vasútállomás,"Magyarország, 6800, Alföld és Észak, Dél-Alföld, Csongrád-Csanád megye, Hódmezővásárhelyi járás, Hódmezővásárhely, Kertváros, Kisállomás sor, Hódmezővásárhelyi Népkert vasútállomás",46.4036952,20.3129743
5657206942,Strandfürdő,"Magyarország, 6800, Alföld és Észak, Dél-Alföld, Csongrád-Csanád megye, Hódmezővásárhelyi járás, Hódmezővásárhely, Kertváros, Ady Endre utca, Strandfürdő",46.409276,20.3157773
5657206943,Hősök tere,"Magyarország, 6800, Alföld és Észak, Dél-Alföld, Csongrád-Csanád megye, Hódmezővásárhelyi járás, Hódmezővásárhely, Belváros, Tóalj utca, Hősök tere",46.4122342,20.3177187
5657206946,Kálvin János tér,"Magyarország, 6800, Alföld és Észak, Dél-Alföld, Csongrád-Csanád megye, Hódmezővásárhelyi járás, Hódmezővásárhely, Hódtó, Andrássy út, Kálvin János tér",46.4169061,20.3289389
5657206947,Hódmezővásárhely vasútállomás,"Magyarország, 6800, Alföld és Észak, Dél-Alföld, Csongrád-Csanád megye, Hódmezővásárhelyi járás, Hódmezővásárhely, Susán, Vízház utca, Hódmezővásárhely vasútállomás",46.4132358,20.3388218
5711897318,Strandfürdő,"Magyarország, 6800, Alföld és Észak, Dél-Alföld, Csongrád-Csanád megye, Hódmezővásárhelyi járás, Hódmezővásárhely, Kertváros, Ady Endre utca, Strandfürdő",46.4095577,20.3158447
5711897319,Hősök tere,"Magyarország, 6800, Alföld és Észak, Dél-Alföld, Csongrád-Csanád megye, Hódmezővásárhelyi járás, Hódmezővásárhely, Belváros, Tóalj utca, Hősök tere",46.4122681,20.3172411
5711897320,Kálvin János tér,"Magyarország, 6800, Alföld és Észak, Dél-Alföld, Csongrád-Csanád megye, Hódmezővásárhelyi járás, Hódmezővásárhely, Hódtó, Andrássy út, Kálvin János tér",46.4167343,20.3285964
6973901378,Fonógyári út (Kollégiumi út),"Iparváros, Kollégiumi út, Fonógyári út (Kollégiumi út)",46.2622304,20.1079121
6973901381,Fonógyári út (Kollégiumi út),"Iparváros, Kollégiumi út, Fonógyári út (Kollégiumi út)",46.2625628,20.1070633
6973901383,Vállalkozó köz,"Iparváros, Kollégiumi út, Vállalkozó köz",46.2647926,20.0984875
6973920385,Vállalkozó köz,"Iparváros, Kollégiumi út, Vállalkozó köz",46.2646192,20.0994377
6973920399,Dorozsmai út (Kollégiumi út),"Iparváros, Kollégiumi út, Dorozsmai út (Kollégiumi út)",46.2684144,20.0963197
7120385083,Kossuth tér,"Magyarország, 6800, Alföld és Észak, Dél-Alföld, Csongrád-Csanád megye, Hódmezővásárhelyi járás, Hódmezővásárhely, Belváros, Andrássy út, Kossuth tér",46.4147174,20.3197791
7120385084,Kossuth tér,"Magyarország, 6800, Alföld és Észak, Dél-Alföld, Csongrád-Csanád megye, Hódmezővásárhelyi járás, Hódmezővásárhely, Belváros, Andrássy út, Kossuth tér",46.4147482,20.3192568
7658799965,Szegedi Ipari Logisztikai Központ,"Back Bernát utca, Szegedi Ipari Logisztikai Központ",46.2888408,20.0843152
7658799966,Back Bernát utca 6.,"Szegedi Ipari Logisztikai Központ, Back Bernát utca, Back Bernát utca 6.",46.2871792,20.0855743
7705115361,Vitéz utca,"Móraváros, Petőfi Sándor sugárút, Vitéz utca",46.2485447,20.1410284
7747574601,Széchenyi tér,"Belváros, Híd utca, Széchenyi tér",46.2522618,20.1494341
8190176202,Hódmezővásárhely vasútállomás,"Magyarország, 6800, Alföld és Észak, Dél-Alföld, Csongrád-Csanád megye, Hódmezővásárhelyi járás, Hódmezővásárhely, Susán, Vízház utca, Hódmezővásárhely vasútállomás",46.4134115,20.3392939
8197407172,Algyő,"Magyarország, 6750, Alföld és Észak, Dél-Alföld, Csongrád-Csanád megye, Szegedi járás, Algyő, Tanya utca, Algyő",46.336267,20.1964648
8197407173,Algyő,"Magyarország, 6750, Alföld és Észak, Dél-Alföld, Csongrád-Csanád megye, Szegedi járás, Algyő, Tanya utca, Algyő",46.336305,20.1963686
8420552543,Hódmezővásárhelyi Népkert vasútállomás,"Magyarország, 6800, Alföld és Észak, Dél-Alföld, Csongrád-Csanád megye, Hódmezővásárhelyi járás, Hódmezővásárhely, Kertváros, Kisállomás sor, Hódmezővásárhelyi Népkert vasútállomás",46.4035879,20.3124303
898800581,Kiskundorozsma vasútállomás,"Iparváros, Dorozsmai út, Kiskundorozsma vasútállomás",46.2705843,20.0891731
898800585,Kollégiumi út,"Iparváros, Dorozsmai út, Kollégiumi út",46.2687769,20.0973344
898800588,Kollégiumi út,"Iparváros, Dorozsmai út, Kollégiumi út",46.2691969,20.0958528
898800591,Budapesti út,"Iparváros, Dorozsmai út, Budapesti út",46.2675237,20.1029849
898800595,Budapesti út,"Iparváros, Dorozsmai út, Budapesti út",46.2677415,20.1029758
898800606,"Kiskundorozsma, ABC","Kiskundorozsma, Dorozsmai út, ABC, Kiskundorozsma",46.2742977,20.0643136
898800616,"Kiskundorozsma, ABC","Kiskundorozsma, Dorozsmai út, ABC, Kiskundorozsma",46.2744815,20.0642005
898800621,Malom (Jerney utca),"Kiskundorozsma, Dorozsmai út, Malom (Jerney utca)",46.2734167,20.0722534
898800628,Malom (Jerney utca),"Kiskundorozsma, Dorozsmai út, Malom (Jerney utca)",46.2735723,20.0711288
898800636,Kiskundorozsma vasútállomás,"Iparváros, Dorozsmai út, Kiskundorozsma vasútállomás",46.2701232,20.0902047
898800657,"Szeged, Subasa","Subasa, Széksósi út, Subasa, Szeged",46.2751892,20.0324172
898800660,"Szeged, Subasa","Subasa, Széksósi út, Subasa, Szeged",46.2753348,20.0323717
898800661,Széksósi út,"Kiskundorozsma, Széksósi út",46.2771469,20.0530787
898800673,Széksósi út,"Kiskundorozsma, Széksósi út",46.2773604,20.0521756
902426436,Glattfelder Gyula tér,"Belváros, Tisza Lajos körút, Glattfelder Gyula tér",46.2567523,20.1561506
904899621,Kálvária tér,"Móraváros, Kálvária sugárút, Kálvária tér",46.2533492,20.1295164
904899636,II. Kórház,"Móraváros, Kálvária sugárút, II. Kórház",46.2535432,20.1260638
904956866,Rózsa utca (József Attila sugárút),"Tarján, Gedó, Rózsa utca, Rózsa utca (József Attila sugárút)",46.2663919,20.157442
904956869,Deák Ferenc Gimnázium,"Fodorkert, Gedó, József Attila sugárút, Deák Ferenc Gimnázium",46.2695793,20.1577062
9281594626,Rókus vasútállomás,"Béketelep, Pulz utca, Rókus vasútállomás",46.2662633,20.1259672
929138473,Rókusi templom,"Rókus, Franciahögy lakópark, Kossuth Lajos sugárút, Rókusi templom",46.2593793,20.1416039
933075173,Pulz utca,"Rókus, Pulz utca",46.264547,20.1257575
938209381,Szivárvány kitérő,"Móraváros, Petőfi Sándor sugárút, Szivárvány kitérő",46.2460332,20.1366528
9817227564,Múzeum,"Belváros, Stefánia, Múzeum",46.2524541,20.15118
